City_ID,City,Cloudiness,Country,Current Description,Humidity,Lat,Lng,Max Temp,Rain (inches),Snow (inches),Wind Speed
0,Lagoa,4,PT,clear sky,88,39.05,-27.98,65.26,0.0,0,13.65
1,Bluff,0,NZ,clear sky,83,-46.6,168.33,39.0,0.0,0,3.0
2,Longyearbyen,75,SJ,broken clouds,65,78.22,15.64,44.6,0.0,0,8.05
3,Severo-Kurilsk,100,RU,overcast clouds,87,50.68,156.12,41.92,0.0,0,8.52
4,Rikitea,100,PF,light rain,85,-23.12,-134.97,75.97,0.8,0,17.6
5,Naryan-Mar,95,RU,overcast clouds,56,67.67,53.09,46.45,0.0,0,2.1
6,Provideniya,0,RU,clear sky,58,64.38,-173.3,57.2,0.0,0,4.47
7,East London,0,ZA,clear sky,60,-33.02,27.91,64.45,0.0,0,12.55
8,Ushuaia,22,AR,few clouds,74,-54.8,-68.3,33.8,0.0,0,3.36
9,Whitefish,90,US,overcast clouds,67,48.41,-114.34,63.0,0.0,0,4.7
10,Nanortalik,100,GL,overcast clouds,78,60.14,-45.24,40.44,0.0,0,7.47
11,Albany,47,US,scattered clouds,44,42.6,-73.97,87.01,0.0,0,6.26
12,Mayor Pablo Lagerenza,100,PY,overcast clouds,42,-19.93,-60.77,87.98,0.0,0,8.3
13,Praia,0,CV,clear sky,54,14.92,-23.51,84.2,0.0,0,26.4
14,Saskylakh,33,RU,scattered clouds,61,71.92,114.08,63.61,0.0,0,5.61
15,San Quintin,0,MX,clear sky,60,30.48,-115.95,67.19,0.0,0,12.48
16,Pevek,0,RU,clear sky,72,69.7,170.31,40.64,0.0,0,9.35
17,Mar Del Plata,75,AR,broken clouds,76,-38.0,-57.56,60.01,0.0,0,14.99
18,Qaanaaq,0,GL,clear sky,85,77.48,-69.36,35.17,0.0,0,1.34
19,Puerto Ayora,29,EC,scattered clouds,51,-0.74,-90.35,84.2,0.0,0,9.17
20,Faanui,100,PF,overcast clouds,80,-16.48,-151.75,79.79,0.0,0,4.5
21,Tevaitoa,100,PF,overcast clouds,78,-16.78,-151.5,80.46,0.0,0,4.56
22,Busselton,60,AU,broken clouds,97,-33.65,115.33,42.01,0.0,0,5.14
23,Butaritari,100,KI,overcast clouds,60,3.07,172.79,83.14,0.0,0,1.79
24,Airai,88,TL,overcast clouds,100,-8.93,125.41,57.99,0.0,0,4.14
25,Alofi,5,NU,clear sky,78,-19.06,-169.92,73.4,0.0,0,11.41
26,Bethel,40,US,scattered clouds,57,41.37,-73.41,81.0,0.0,0,11.41
27,Boksitogorsk,42,RU,scattered clouds,84,59.47,33.85,70.9,0.0,0,6.55
28,Thompson,90,CA,light rain,100,55.74,-97.86,35.6,0.0,0,14.99
29,Bathsheba,40,BB,light intensity shower rain,70,13.22,-59.52,87.8,0.0,0,20.8
30,Tasiilaq,100,GL,light rain,81,65.61,-37.64,42.8,0.0,0,43.62
31,Tanete,99,ID,light rain,90,-3.94,119.78,75.81,0.44,0,6.58
32,Vaini,20,TO,few clouds,83,-21.2,-175.2,69.8,0.0,0,9.17
33,Balkhash,46,KZ,scattered clouds,49,46.84,74.98,69.33,0.0,0,3.15
34,Norfolk,20,US,few clouds,45,42.17,-71.25,89.01,0.0,0,6.93
35,Cape Town,0,ZA,clear sky,58,-33.93,18.42,64.99,0.0,0,10.29
36,Hobart,100,AU,overcast clouds,93,-42.88,147.33,41.0,0.0,0,3.36
37,Bilma,14,NE,few clouds,14,18.69,12.92,94.23,0.0,0,5.93
38,Hasaki,75,JP,light rain,100,35.73,140.83,64.4,0.0,0,6.93
39,Esperance,75,AU,broken clouds,87,-33.87,121.9,48.2,0.0,0,13.87
40,Cidreira,41,BR,scattered clouds,68,-30.18,-50.21,74.41,0.0,0,8.19
41,Lebu,100,CL,moderate rain,94,-37.62,-73.65,52.93,1.69,0,15.08
42,Khatanga,16,RU,few clouds,57,71.97,102.5,53.13,0.0,0,11.95
43,Punta Arenas,90,CL,overcast clouds,80,-53.15,-70.92,41.0,0.0,0,12.75
44,Richards Bay,87,ZA,overcast clouds,79,-28.78,32.04,59.41,0.0,0,2.28
45,Bredasdorp,0,ZA,clear sky,87,-34.53,20.04,48.2,0.0,0,4.97
46,Thunder Bay,75,CA,broken clouds,53,48.4,-89.32,77.0,0.0,0,13.87
47,Filadelfia,40,US,scattered clouds,61,39.95,-75.16,80.6,0.0,0,8.05
48,Yining,100,CN,light rain,92,29.04,114.56,71.62,0.87,0,2.37
49,Iqaluit,90,CA,overcast clouds,60,63.75,-68.51,42.8,0.0,0,5.82
50,Ampanihy,0,MG,clear sky,83,-24.7,44.75,62.67,0.0,0,12.03
51,Tobol,0,KZ,clear sky,68,52.68,62.58,51.46,0.0,0,8.01
52,Ajdabiya,0,LY,clear sky,37,30.76,20.23,74.62,0.0,0,5.3
53,Meulaboh,68,ID,broken clouds,84,4.14,96.13,78.42,0.0,0,5.03
54,Marquette,40,US,scattered clouds,35,46.53,-87.63,84.2,0.0,0,16.11
55,Flinders,3,AU,clear sky,86,-34.58,150.86,48.0,0.0,0,1.01
56,Sambava,100,MG,light rain,85,-14.27,50.17,72.16,0.77,0,18.63
57,Yellowknife,20,CA,few clouds,62,62.46,-114.35,64.0,0.0,0,16.11
58,Port Lincoln,70,AU,broken clouds,43,-34.73,135.87,59.34,0.0,0,21.77
59,Mao,0,ES,clear sky,68,39.89,4.27,71.6,0.0,0,6.93
60,Tiarei,40,PF,shower rain,88,-17.53,-149.33,78.8,0.0,0,4.7
61,Port Macquarie,63,AU,broken clouds,97,-31.43,152.92,54.0,0.0,0,2.95
62,Pangnirtung,75,CA,broken clouds,80,66.15,-65.71,39.2,0.0,0,18.34
63,Luderitz,0,NA,clear sky,21,-26.65,15.16,78.8,0.0,0,5.82
64,Darhan,100,MN,overcast clouds,82,49.49,105.92,60.71,0.0,0,1.25
65,Kushima,100,JP,overcast clouds,100,31.46,131.23,75.0,0.0,0,11.01
66,Mataura,1,NZ,clear sky,83,-46.19,168.86,39.0,0.0,0,3.0
67,Kuzino,53,RU,broken clouds,74,57.02,59.44,42.73,0.0,0,3.11
68,Tarauaca,31,BR,scattered clouds,38,-8.16,-70.77,93.72,0.0,0,1.92
69,Lorengau,43,PG,light rain,78,-2.02,147.27,82.31,0.39,0,9.26
70,Bandarbeyla,99,SO,overcast clouds,69,9.49,50.81,81.41,0.0,0,30.87
71,Hilo,40,US,scattered clouds,73,19.73,-155.09,77.0,0.0,0,6.93
72,Sisimiut,46,GL,scattered clouds,67,66.94,-53.67,41.68,0.0,0,17.47
73,Norman Wells,75,CA,broken clouds,40,65.28,-126.83,73.4,0.0,0,9.17
74,Castro,100,BR,overcast clouds,73,-24.79,-50.01,65.98,0.0,0,8.77
75,Constitucion,100,CL,light rain,85,-35.33,-72.42,55.78,0.28,0,22.84
76,Maraa,89,BR,light rain,63,-1.83,-65.37,87.69,0.21,0,2.82
77,Mogadishu,77,SO,broken clouds,80,2.04,45.34,78.51,0.0,0,17.22
78,Kaoma,2,ZM,clear sky,60,-14.78,24.8,53.37,0.0,0,6.58
79,Tuktoyaktuk,90,CA,overcast clouds,93,69.45,-133.04,44.6,0.0,0,10.29
80,Skibbereen,75,IE,broken clouds,72,51.55,-9.27,60.8,0.0,0,4.7
81,Panzhihua,100,CN,light rain,78,26.59,101.71,73.65,0.54,0,0.96
82,Kariba,78,ZW,broken clouds,55,-16.52,28.8,65.17,0.0,0,3.49
83,Zaysan,8,KZ,clear sky,50,47.47,84.87,59.34,0.0,0,6.69
84,Beloomut,99,RU,light rain,60,54.94,39.34,72.0,0.13,0,7.0
85,Saint-Pierre,75,RE,broken clouds,64,-21.34,55.48,69.8,0.0,0,11.41
86,Kermanshah,0,IR,clear sky,13,34.31,47.06,77.0,0.0,0,11.41
87,Port Elizabeth,0,ZA,clear sky,82,-33.92,25.57,57.2,0.0,0,6.93
88,Avarua,27,CK,scattered clouds,69,-21.21,-159.78,73.4,0.0,0,10.29
89,Barrow,1,US,clear sky,65,71.29,-156.79,46.4,0.0,0,8.05
90,Vallenar,100,CL,overcast clouds,17,-28.57,-70.76,75.94,0.0,0,2.46
91,Talnakh,87,RU,overcast clouds,61,69.49,88.4,46.4,0.0,0,13.42
92,New Norfolk,100,AU,overcast clouds,85,-42.78,147.06,39.99,0.0,0,2.37
93,Faya,20,SA,few clouds,47,18.39,42.45,77.0,0.0,0,4.54
94,Barcelos,0,PT,clear sky,77,41.54,-8.62,66.0,0.0,0,14.99
95,Kodiak,90,US,overcast clouds,87,57.79,-152.41,50.0,0.0,0,10.29
96,Hithadhoo,100,MV,light rain,77,-0.6,73.08,84.47,0.83,0,8.68
97,Arraial Do Cabo,0,BR,clear sky,65,-22.97,-42.03,77.0,0.0,0,18.34
98,Kruisfontein,0,ZA,clear sky,44,-34.0,24.73,56.97,0.0,0,5.61
99,Ewa Beach,75,US,shower rain,74,21.32,-158.01,78.8,0.0,0,16.11
100,Namatanai,14,PG,light rain,82,-3.67,152.43,79.97,0.41,0,5.91
101,San Felipe,98,VE,moderate rain,85,10.34,-68.74,80.44,3.17,0,2.71
102,Vostok,97,RU,overcast clouds,100,46.49,135.88,46.09,0.0,0,1.97
103,Kovdor,100,RU,overcast clouds,73,67.57,30.48,60.15,0.0,0,4.65
104,Miranda,75,CO,broken clouds,58,3.25,-76.23,84.2,0.0,0,3.36
105,Rocha,100,UY,overcast clouds,83,-34.48,-54.33,58.71,0.0,0,15.01
106,Atuona,22,PF,few clouds,76,-9.8,-139.03,79.81,0.0,0,11.18
107,Lompoc,0,US,clear sky,64,34.64,-120.46,70.0,0.0,0,9.17
108,Saint-Francois,67,FR,broken clouds,55,46.42,3.91,64.4,0.0,0,3.36
109,Los Llanos De Aridane,40,ES,scattered clouds,73,28.66,-17.92,73.4,0.0,0,14.99
110,Guane,75,CU,light rain,62,22.2,-84.09,88.36,0.43,0,5.97
111,Dhidhdhoo,100,MV,light rain,79,6.88,73.1,84.11,0.5,0,10.49
112,Zhigansk,0,RU,clear sky,65,66.77,123.37,59.74,0.0,0,7.02
113,Cabinda,100,AO,overcast clouds,86,-5.55,12.2,73.81,0.0,0,7.61
114,Half Moon Bay,1,US,clear sky,52,37.46,-122.43,86.0,0.0,0,8.05
115,Puerto Leguizamo,100,CO,moderate rain,86,-0.19,-74.78,82.27,1.76,0,2.68
116,Jamestown,75,US,broken clouds,54,42.1,-79.24,80.6,0.0,0,9.17
117,Kyra,100,RU,light rain,91,49.58,111.98,55.69,0.2,0,2.3
118,Maine-Soroa,57,NE,broken clouds,32,13.21,12.02,93.85,0.0,0,5.64
119,Praia Da Vitoria,75,PT,broken clouds,64,38.73,-27.07,71.6,0.0,0,9.71
120,Praxedis Guerrero,40,MX,scattered clouds,10,31.37,-106.02,93.2,0.0,0,13.87
121,Nikolskoye,75,RU,broken clouds,72,59.7,30.79,68.0,0.0,0,4.47
122,Georgetown,20,MY,few clouds,79,5.41,100.34,84.2,0.0,0,3.36
123,Hermanus,0,ZA,clear sky,68,-34.42,19.23,54.0,0.0,0,8.12
124,Baykit,55,RU,broken clouds,64,61.67,96.37,53.56,0.0,0,3.22
125,Bonthe,100,SL,moderate rain,86,7.53,-12.51,79.34,1.15,0,8.84
126,Xihua,0,CN,clear sky,81,33.78,114.52,69.57,0.0,0,3.67
127,Kloulklubed,75,PW,broken clouds,94,7.04,134.26,77.0,0.0,0,3.36
128,Sarapulka,2,RU,clear sky,81,56.87,61.06,42.8,0.0,0,3.02
129,Puerto Escondido,75,MX,broken clouds,66,15.85,-97.07,87.8,0.0,0,8.05
130,San Patricio,20,MX,few clouds,74,19.22,-104.7,86.0,0.0,0,11.41
131,Narsaq,40,GL,scattered clouds,61,60.92,-46.05,46.4,0.0,0,9.17
132,Geraldton,0,AU,clear sky,81,-28.77,114.6,51.8,0.0,0,5.82
133,Leningradskiy,73,RU,broken clouds,62,69.38,178.42,43.74,0.0,0,4.52
134,Aliartos,6,GR,clear sky,61,38.37,23.1,79.0,0.0,0,7.38
135,Clyde River,90,CA,overcast clouds,89,70.47,-68.59,33.8,0.0,0,9.17
136,Naze,100,JP,overcast clouds,100,28.37,129.48,78.8,0.0,0,12.75
137,Luena,0,AO,clear sky,56,-11.78,19.92,55.54,0.0,0,5.3
138,Whitehorse,75,CA,broken clouds,51,60.72,-135.05,59.0,0.0,0,11.41
139,Komsomolskiy,23,UZ,few clouds,40,40.43,71.72,71.6,0.0,0,6.93
140,Novi Pazar,88,RS,light rain,79,43.14,20.51,60.28,0.68,0,2.48
141,Pilar,75,BR,broken clouds,69,-9.6,-35.96,80.6,0.0,0,18.34
142,Mayo,1,US,clear sky,73,38.89,-76.51,81.0,0.0,0,9.17
143,Ilulissat,90,GL,fog,63,69.22,-51.1,33.8,0.0,0,6.93
144,Moose Factory,1,CA,clear sky,40,51.26,-80.61,87.8,0.0,0,17.22
145,Souillac,75,MU,broken clouds,68,-20.52,57.52,71.6,0.0,0,10.29
146,Dom Pedrito,0,BR,clear sky,78,-30.98,-54.67,70.61,0.0,0,10.13
147,Puri,75,IN,haze,94,19.8,85.85,82.4,0.0,0,6.93
148,Pandan,0,PH,clear sky,83,14.05,124.17,80.71,0.0,0,7.87
149,San Andres,88,CO,overcast clouds,75,12.58,-81.7,81.99,0.0,0,14.99
150,Chokurdakh,64,RU,broken clouds,43,70.63,147.92,74.07,0.0,0,8.32
151,Aleksandrov Gay,100,RU,overcast clouds,57,50.15,48.57,76.48,0.0,0,7.85
152,Kapaa,90,US,moderate rain,94,22.08,-159.32,75.2,3.05,0,21.92
153,Bathurst,0,AU,clear sky,99,-33.42,149.58,37.99,0.0,0,1.77
154,Hamilton,40,US,scattered clouds,54,39.18,-84.53,82.0,0.0,0,4.7
155,Vanavara,0,RU,clear sky,78,60.34,102.28,49.17,0.0,0,3.96
156,Broken Hill,0,AU,clear sky,65,-31.95,141.43,46.4,0.0,0,10.29
157,Morehead,40,US,scattered clouds,39,37.27,-87.18,84.2,0.0,0,4.59
158,Tarragona,3,ES,clear sky,77,41.13,1.25,68.0,0.0,0,4.7
159,Port Alfred,0,ZA,clear sky,77,-33.59,26.89,55.99,0.0,0,5.99
160,Mahebourg,75,MU,broken clouds,68,-20.41,57.7,71.6,0.0,0,10.29
161,Erzincan,75,TR,broken clouds,59,39.75,39.5,64.4,0.0,0,19.46
162,Rock Springs,1,US,clear sky,33,41.59,-109.2,57.2,0.0,0,8.05
163,Ostrovnoy,100,RU,overcast clouds,67,68.05,39.51,57.04,0.0,0,4.83
164,Torbay,90,CA,overcast clouds,60,47.67,-52.73,70.0,0.0,0,11.41
165,Tadine,40,NC,scattered clouds,83,-21.55,167.88,70.83,0.0,0,13.96
166,Wyndham,90,US,overcast clouds,61,37.7,-77.61,81.0,0.0,0,8.05
167,Husavik,61,IS,broken clouds,54,66.04,-17.34,57.2,0.0,0,4.7
168,Dinghai,100,CN,overcast clouds,83,26.28,119.79,82.4,0.0,0,6.71
169,Auki,9,SB,clear sky,85,-8.77,160.7,78.01,0.0,0,2.82
170,Aksum,100,ET,overcast clouds,75,14.12,38.72,63.03,0.0,0,6.53
171,Touros,90,BR,shower rain,94,-5.2,-35.46,75.2,0.0,0,9.17
172,Carmarthen,100,GB,moderate rain,93,51.86,-4.31,59.0,1.7,0,13.87
173,Sao Felix Do Xingu,1,BR,clear sky,51,-6.64,-51.99,86.09,0.0,0,6.67
174,Avera,90,US,overcast clouds,57,33.19,-82.53,81.0,0.0,0,5.19
175,Labuhan,0,ID,light rain,85,-6.88,112.21,78.19,0.71,0,5.93
176,Santa Maria Del Oro,40,MX,scattered clouds,21,25.93,-105.37,86.36,0.0,0,4.18
177,Saint Anthony,1,US,clear sky,57,45.02,-93.22,82.0,0.0,0,14.99
178,Muyezerskiy,100,RU,moderate rain,91,63.93,31.65,64.02,2.29,0,8.7
179,Sao Filipe,0,CV,clear sky,58,14.9,-24.5,82.35,0.0,0,9.69
180,Muros,40,ES,scattered clouds,67,42.78,-9.06,64.0,0.0,0,10.29
181,Champerico,40,GT,scattered clouds,70,14.3,-91.92,87.8,0.0,0,9.17
182,Coihaique,40,CL,scattered clouds,57,-45.58,-72.07,51.8,0.0,0,5.82
183,Kahului,20,US,few clouds,54,20.89,-156.47,84.2,0.0,0,24.16
184,Marawi,89,PH,overcast clouds,96,8.0,124.29,73.99,0.0,0,5.01
185,Kavieng,59,PG,light rain,75,-2.57,150.8,82.17,0.88,0,4.88
186,Inuvik,75,CA,shower rain,58,68.35,-133.72,59.0,0.0,0,6.93
187,Igarka,100,RU,overcast clouds,54,67.47,86.58,46.18,0.0,0,11.97
188,Oranjemund,0,NA,clear sky,26,-28.55,16.43,68.2,0.0,0,5.03
189,Saint-Philippe,75,RE,broken clouds,64,-21.36,55.77,69.8,0.0,0,11.41
190,Padang,100,ID,light rain,76,-0.95,100.35,78.64,0.32,0,4.05
191,Dickinson,20,US,few clouds,38,29.46,-95.05,91.99,0.0,0,6.93
192,Victoria,100,HK,light rain,79,22.29,114.16,84.0,0.35,0,4.0
193,Orbetello,49,IT,scattered clouds,73,42.44,11.22,69.8,0.0,0,8.05
194,Ascope,5,PE,clear sky,51,-7.71,-79.11,76.17,0.0,0,10.74
195,Monrovia,75,LR,broken clouds,88,6.3,-10.8,80.6,0.0,0,11.83
196,Saint-Joseph,75,RE,broken clouds,64,-21.37,55.62,69.8,0.0,0,11.41
197,Ixtapa,5,MX,clear sky,55,20.7,-105.2,88.0,0.0,0,6.93
198,Saint-Augustin,100,CA,light rain,79,51.23,-58.65,57.29,0.21,0,4.34
199,Klaksvik,96,FO,overcast clouds,100,62.23,-6.59,48.2,0.0,0,8.05
200,Nerchinskiy Zavod,0,RU,clear sky,89,51.31,119.61,51.51,0.0,0,0.07
201,Saint George,1,US,clear sky,12,37.1,-113.58,80.6,0.0,0,9.17
202,Pacific Grove,1,US,clear sky,49,36.62,-121.92,84.0,0.0,0,6.93
203,Salalah,20,OM,few clouds,89,17.02,54.09,84.2,0.0,0,5.82
204,Bartica,40,GY,thunderstorm,74,6.4,-58.62,86.0,0.0,0,9.17
205,Berlevag,75,NO,broken clouds,81,70.86,29.09,46.4,0.0,0,24.16
206,Takoradi,100,GH,light rain,86,4.88,-1.76,77.59,0.34,0,9.78
207,Borba,90,BR,overcast clouds,46,-4.39,-59.59,92.08,0.0,0,3.87
208,Ahipara,13,NZ,light rain,81,-35.17,173.17,50.09,0.12,0,5.82
209,Ponta Do Sol,20,PT,few clouds,73,32.67,-17.1,71.6,0.0,0,8.05
210,Kasangulu,97,CD,overcast clouds,78,-4.59,15.17,77.0,0.0,0,1.79
211,Koshurnikovo,100,RU,light rain,100,54.17,93.3,52.97,0.52,0,4.12
212,Yeppoon,46,AU,light rain,82,-23.13,150.73,60.8,0.14,0,6.93
213,Shimanovsk,100,RU,overcast clouds,76,52.0,127.7,50.7,0.0,0,1.74
214,Tura,100,IN,light rain,98,25.52,90.22,74.68,0.48,0,5.06
215,Kieta,4,PG,light rain,81,-6.22,155.63,78.93,0.11,0,3.62
216,Natalinsk,0,RU,clear sky,70,56.47,57.87,45.37,0.0,0,3.87
217,Novoagansk,95,RU,overcast clouds,64,61.94,76.66,42.76,0.0,0,12.93
218,Tessalit,0,ML,clear sky,8,20.2,1.01,101.55,0.0,0,8.1
219,Petropavlovsk-Kamchatskiy,90,RU,light intensity drizzle,100,53.05,158.65,41.0,0.0,0,4.47
220,San Cristobal,40,VE,scattered clouds,49,7.77,-72.22,89.6,0.0,0,14.99
221,Comodoro Rivadavia,54,AR,broken clouds,41,-45.87,-67.5,59.0,0.0,0,20.8
222,Sao Jose Da Coroa Grande,11,BR,few clouds,76,-8.9,-35.15,79.63,0.0,0,11.12
223,Saldanha,0,ZA,clear sky,45,-33.01,17.94,62.6,0.0,0,3.36
224,Weligama,91,LK,overcast clouds,90,5.97,80.42,80.33,0.0,0,6.38
225,Aklavik,75,CA,shower rain,67,68.22,-135.01,59.0,0.0,0,5.82
226,Romitan,0,UZ,clear sky,31,39.93,64.38,73.4,0.0,0,6.93
227,Contamana,66,PE,broken clouds,39,-7.33,-75.02,94.24,0.0,0,0.94
228,Verkhnya Syrovatka,100,UA,light rain,88,50.83,34.96,66.65,0.2,0,3.94
229,Vila Do Maio,0,CV,clear sky,54,15.13,-23.22,84.2,0.0,0,26.4
230,Guarda,10,PT,clear sky,48,40.54,-7.27,64.0,0.0,0,5.99
231,Vershino-Darasunskiy,6,RU,clear sky,61,52.35,115.52,48.09,0.0,0,2.48
232,Gladstone,40,AU,scattered clouds,77,-23.85,151.25,64.4,0.0,0,9.17
233,Caracollo,22,PE,few clouds,26,-14.92,-70.66,60.57,0.0,0,4.72
234,North Platte,90,US,overcast clouds,40,41.12,-100.77,73.4,0.0,0,13.87
235,Mount Gambier,100,AU,overcast clouds,71,-37.83,140.77,51.8,0.0,0,17.22
236,Kingman,1,US,clear sky,12,35.19,-114.05,91.99,0.0,0,9.17
237,Pisco,75,PE,broken clouds,68,-13.7,-76.22,68.0,0.0,0,6.93
238,Bengkulu,95,ID,overcast clouds,89,-3.8,102.27,76.28,0.0,0,4.79
239,Brigham City,1,US,clear sky,42,41.51,-112.02,63.0,0.0,0,3.36
240,Beringovskiy,0,RU,clear sky,56,63.05,179.32,48.88,0.0,0,0.2
241,Saint-Georges,40,GD,light intensity shower rain,74,12.06,-61.75,84.2,0.0,0,14.99
242,Tambacounda,0,SN,clear sky,32,13.75,-13.76,98.6,0.0,0,9.17
243,Dajal,0,PK,clear sky,21,29.56,70.38,103.23,0.0,0,26.62
244,Raga,100,SS,light rain,91,8.46,25.68,72.46,0.26,0,8.21
245,Fomboni,0,KM,clear sky,69,-12.28,43.74,77.22,0.0,0,16.17
246,Brainerd,75,US,broken clouds,61,46.36,-94.2,78.8,0.0,0,14.99
247,Burnie,100,AU,overcast clouds,88,-41.07,145.92,50.0,0.0,0,4.0
248,Coquimbo,100,CL,overcast clouds,67,-29.95,-71.34,60.8,0.0,0,9.17
249,Fairhope,75,US,broken clouds,65,30.52,-87.9,84.99,0.0,0,10.29
250,Samandag,40,TR,scattered clouds,60,36.08,35.98,75.2,0.0,0,5.82
251,Sheridan,40,US,scattered clouds,42,44.83,-106.92,66.2,0.0,0,16.11
252,Dakar,0,SN,dust,83,14.69,-17.44,84.2,0.0,0,16.11
253,Adrar,76,MR,broken clouds,13,20.5,-10.07,103.3,0.0,0,14.47
254,Haines Junction,100,CA,overcast clouds,46,60.75,-137.51,61.79,0.0,0,1.81
255,Cururupu,19,BR,light rain,75,-1.83,-44.87,82.45,0.48,0,5.7
256,Sorland,40,NO,scattered clouds,81,67.67,12.69,48.2,0.0,0,18.34
257,Mantena,39,BR,scattered clouds,66,-18.78,-40.98,74.53,0.0,0,3.44
258,Salinas,1,US,clear sky,44,36.68,-121.66,84.99,0.0,0,16.11
259,Tual,92,ID,light rain,84,-5.67,132.75,80.76,0.18,0,22.01
260,Batsfjord,40,NO,scattered clouds,70,70.63,29.72,46.4,0.0,0,12.75
261,Iisalmi,40,FI,scattered clouds,60,63.56,27.19,68.0,0.0,0,9.17
262,Ucluelet,75,CA,broken clouds,77,48.93,-125.55,62.6,0.0,0,9.17
263,Karratha,0,AU,clear sky,63,-20.74,116.85,68.72,0.0,0,3.6
264,Taunggyi,100,MM,overcast clouds,100,20.78,97.03,62.29,0.0,0,4.0
265,Koryukivka,100,UA,overcast clouds,88,51.77,32.25,63.84,0.0,0,1.97
266,Cherskiy,0,RU,clear sky,39,68.75,161.3,67.55,0.0,0,6.98
267,Xunchang,19,CN,few clouds,79,28.45,104.72,70.11,0.0,0,1.77
268,Waipawa,100,NZ,mist,93,-41.41,175.52,52.0,0.0,0,25.28
269,Antofagasta,20,CL,few clouds,77,-23.65,-70.4,60.8,0.0,0,4.7
270,Omsukchan,100,RU,overcast clouds,45,62.53,155.8,62.26,0.0,0,1.5
271,Wana,0,PK,clear sky,14,32.3,69.57,85.37,0.0,0,9.62
272,Portobelo,40,PA,scattered clouds,79,9.55,-79.65,84.99,0.0,0,10.29
273,Tiksi,100,RU,overcast clouds,71,71.69,128.87,53.35,0.0,0,4.09
274,Babushkin,69,RU,broken clouds,77,51.71,105.86,50.88,0.0,0,4.16
275,Mnogovershinnyy,81,RU,broken clouds,98,53.94,139.92,36.86,0.0,0,2.89
276,Carnarvon,0,AU,clear sky,72,-24.87,113.63,59.0,0.0,0,11.41
277,Aksu,100,CN,overcast clouds,22,41.12,80.26,78.49,0.0,0,4.14
278,Camacha,20,PT,few clouds,73,33.08,-16.33,71.6,0.0,0,9.17
279,Wattegama,22,LK,few clouds,94,6.8,81.48,80.6,0.0,0,6.93
280,Vysokaya Gora,0,RU,clear sky,54,55.91,49.3,59.0,0.0,0,6.71
281,Samarai,61,PG,light rain,82,-10.62,150.67,79.27,0.13,0,16.46
282,Bakchar,100,RU,overcast clouds,97,57.02,82.07,47.07,0.0,0,9.13
283,Salisbury,100,GB,light rain,93,51.07,-1.8,59.0,0.0,0,11.41
284,Cockburn Town,40,TC,scattered clouds,62,21.46,-71.14,87.8,0.0,0,13.87
285,Grand Gaube,100,MU,overcast clouds,81,-20.01,57.66,68.0,0.0,0,8.99
286,Usinsk,10,RU,clear sky,69,65.99,57.53,40.14,0.0,0,9.22
287,Sinazongwe,0,ZM,clear sky,48,-17.26,27.46,64.38,0.0,0,0.43
288,Cabra,0,ES,clear sky,29,37.47,-4.44,80.01,0.0,0,3.0
289,Dikson,94,RU,overcast clouds,96,73.51,80.55,32.83,0.0,0,16.78
290,Laguna,1,US,clear sky,14,38.42,-121.42,87.8,0.0,0,8.05
291,Hambantota,80,LK,broken clouds,94,6.12,81.12,80.6,0.0,0,6.93
292,Sulangan,100,PH,moderate rain,79,11.14,123.72,80.49,1.4,0,16.2
293,Grojec,40,PL,scattered clouds,88,51.86,20.87,71.01,0.0,0,1.12
294,Svetlogorsk,20,BY,few clouds,84,52.63,29.73,68.72,0.0,0,8.68
295,Chuy,33,UY,scattered clouds,75,-33.7,-53.46,65.3,0.0,0,16.82
296,Svelgen,20,NO,few clouds,87,61.77,5.3,73.4,0.0,0,8.05
297,Mahajanga,20,MG,few clouds,50,-15.72,46.32,77.0,0.0,0,11.41
298,Krasnoselkup,100,RU,overcast clouds,57,65.7,82.47,45.97,0.0,0,14.54
299,Witu,51,KE,broken clouds,83,-2.39,40.44,76.24,0.0,0,14.32
300,Sioux Lookout,90,CA,mist,88,50.1,-91.92,69.8,0.0,0,6.93
301,Soure,70,BR,light rain,72,-0.72,-48.52,84.99,0.2,0,11.61
302,Portland,92,US,overcast clouds,65,45.52,-122.68,71.01,0.0,0,3.78
303,Joshimath,90,IN,overcast clouds,55,30.57,79.57,63.41,0.0,0,2.3
304,Carutapera,70,BR,light rain,86,-1.2,-46.02,81.1,0.53,0,7.87
305,Hami,39,CN,scattered clouds,23,42.8,93.45,82.71,0.0,0,17.36
306,Pervomayskiy,68,RU,broken clouds,89,53.25,40.29,66.36,0.0,0,7.23
307,Khandyga,58,RU,broken clouds,84,62.67,135.6,57.22,0.0,0,2.28
308,Broome,91,US,light rain,64,42.25,-75.83,82.99,0.27,0,4.0
309,Ziro,100,IN,moderate rain,100,27.63,93.83,59.59,1.47,0,0.63
310,Sabang,100,ID,light rain,75,5.89,95.32,83.3,0.91,0,9.37
311,Biak,90,ID,overcast clouds,82,-0.91,122.88,77.29,0.0,0,6.87
312,Cabo San Lucas,20,MX,few clouds,40,22.89,-109.91,93.2,0.0,0,8.05
313,Mandalgovi,100,MN,overcast clouds,34,45.76,106.27,69.55,0.0,0,8.93
314,Leninskoye,0,RU,clear sky,95,47.94,132.62,45.73,0.0,0,5.61
315,Grindavik,75,IS,broken clouds,81,63.84,-22.43,50.0,0.0,0,24.16
316,Roald,0,NO,clear sky,72,62.58,6.13,66.0,0.0,0,17.22
317,Fremont,5,US,clear sky,39,37.55,-121.99,87.01,0.0,0,6.93
318,Nishihara,75,JP,broken clouds,88,26.18,127.76,82.4,0.0,0,17.22
319,Honiara,20,SB,few clouds,100,-9.43,159.95,71.6,0.0,0,3.36
320,Birjand,0,IR,clear sky,11,32.87,59.22,80.6,0.0,0,11.41
321,Rjukan,94,NO,overcast clouds,58,59.88,8.59,75.0,0.0,0,1.99
322,Te Anau,46,NZ,scattered clouds,96,-45.42,167.72,31.59,0.0,0,1.03
323,Humpolec,85,CZ,overcast clouds,95,49.54,15.36,62.01,0.0,0,9.91
324,Saint-Honore,20,CA,few clouds,23,48.53,-71.08,97.0,0.0,0,13.87
325,Uarini,75,BR,broken clouds,74,-2.99,-65.11,86.0,0.0,0,6.93
326,Normandin,20,CA,few clouds,26,48.83,-72.53,95.0,0.0,0,12.75
327,Harrisonville,40,US,scattered clouds,43,38.65,-94.35,89.6,0.0,0,10.29
328,Ihosy,51,MG,broken clouds,91,-22.4,46.12,56.66,0.0,0,11.86
329,Zolotkovo,0,RU,clear sky,96,55.53,41.11,64.58,0.0,0,6.82
330,Doka,100,SD,overcast clouds,53,13.52,35.77,85.57,0.0,0,9.64
331,Orlovskiy,97,RU,overcast clouds,48,46.87,42.06,71.19,0.0,0,8.88
332,Vardo,17,NO,few clouds,81,70.37,31.11,44.6,0.0,0,16.11
333,Minggang,0,CN,clear sky,88,32.46,114.05,69.58,0.0,0,3.89
334,Ballina,75,AU,broken clouds,93,-28.87,153.57,57.2,0.0,0,5.82
335,Wanning,91,CN,light rain,89,18.8,110.4,81.27,0.25,0,10.4
336,Vila Franca Do Campo,75,PT,broken clouds,82,37.72,-25.43,64.4,0.0,0,12.75
337,Singarayakonda,100,IN,moderate rain,74,15.25,80.03,81.63,2.51,0,4.45
338,Codrington,100,AU,overcast clouds,79,-38.27,141.97,50.58,0.0,0,14.43
339,Marystown,100,CA,overcast clouds,73,47.17,-55.15,60.04,0.0,0,18.01
340,Nanga Eboko,100,CM,overcast clouds,97,4.68,12.37,69.39,0.0,0,4.43
341,Myrtle Beach,75,US,broken clouds,69,33.69,-78.89,79.0,0.0,0,8.05
342,Isla Vista,90,US,haze,77,34.41,-119.86,70.0,0.0,0,6.93
343,Baykalsk,100,RU,overcast clouds,84,51.51,104.15,48.25,0.0,0,0.89
344,Wajima,100,JP,overcast clouds,81,37.4,136.9,67.23,0.0,0,5.88
345,Port Hardy,90,CA,overcast clouds,82,50.7,-127.42,59.0,0.0,0,4.7
346,Isangel,20,VU,few clouds,100,-19.55,169.27,66.2,0.0,0,11.5
347,Mugur-Aksy,12,RU,few clouds,66,50.35,90.5,47.07,0.0,0,5.39
348,Najran,40,SA,scattered clouds,14,17.49,44.13,87.8,0.0,0,2.39
349,Plouzane,90,FR,overcast clouds,87,48.38,-4.62,59.0,0.0,0,9.17
350,Aswan,66,EG,broken clouds,13,24.09,32.91,89.46,0.0,0,15.79
351,Katsuura,75,JP,shower rain,93,35.13,140.3,68.0,0.0,0,6.93
352,Cabo Rojo,32,PR,scattered clouds,71,18.09,-67.15,88.0,0.0,0,5.99
353,Qaqortoq,40,GL,scattered clouds,61,60.72,-46.03,46.4,0.0,0,9.17
354,Coronado,20,US,few clouds,56,32.69,-117.18,71.01,0.0,0,10.29
355,Ribeira Grande,75,PT,broken clouds,77,38.52,-28.7,66.2,0.0,0,9.17
356,Kokopo,1,PG,clear sky,83,-4.35,152.26,77.63,0.0,0,7.27
357,Batagay,0,RU,clear sky,48,67.63,134.63,69.93,0.0,0,1.61
358,Moron,92,AR,overcast clouds,67,-34.65,-58.62,66.99,0.0,0,9.17
359,Eyl,15,SO,few clouds,64,7.98,49.82,82.42,0.0,0,26.13
360,San Policarpo,100,PH,overcast clouds,80,12.18,125.51,79.63,0.0,0,8.59
361,Kirsanov,24,RU,few clouds,91,52.65,42.72,66.13,0.0,0,8.99
362,Mastung,0,PK,clear sky,16,29.8,66.84,75.09,0.0,0,7.7
363,Batagay-Alyta,0,RU,clear sky,54,67.8,130.41,63.93,0.0,0,1.59
364,Prince Rupert,90,CA,light rain,93,54.32,-130.32,57.2,0.0,0,16.11
365,Harper,74,LR,broken clouds,77,4.38,-7.72,78.73,0.0,0,6.58
366,Ambur,100,IN,overcast clouds,58,12.78,78.7,81.45,0.0,0,8.7
367,Penne,59,IT,broken clouds,68,42.45,13.93,71.6,0.0,0,2.24
368,Alyangula,13,AU,few clouds,94,-13.85,136.42,68.0,0.0,0,10.67
369,Lampa,90,CL,overcast clouds,81,-33.28,-70.9,52.0,0.0,0,4.7
370,Lanxi,99,CN,light rain,94,29.22,119.48,74.71,0.94,0,4.18
371,Kaitangata,42,NZ,scattered clouds,83,-46.28,169.85,40.06,0.0,0,9.1
372,Paragominas,9,BR,clear sky,57,-2.97,-47.48,87.4,0.0,0,4.9
373,Gardner,1,US,clear sky,35,42.58,-72.0,87.8,0.0,0,5.82
374,Alice Springs,0,AU,clear sky,49,-23.7,133.88,52.0,0.0,0,5.82
375,Darab,0,IR,clear sky,21,28.75,54.54,84.33,0.0,0,2.71
376,Opuwo,0,NA,clear sky,44,-18.06,13.84,59.27,0.0,0,7.78
377,Upernavik,0,GL,clear sky,81,72.79,-56.15,36.27,0.0,0,10.38
378,Vassouras,99,BR,overcast clouds,47,-22.4,-43.66,78.8,0.0,0,6.93
379,Kurilsk,94,RU,overcast clouds,93,45.23,147.88,47.82,0.0,0,1.43
380,Tieli,18,CN,few clouds,90,46.95,128.05,48.83,0.0,0,4.47
381,Poum,100,NC,overcast clouds,76,-20.23,164.02,74.26,0.0,0,15.64
382,Seka,96,TH,overcast clouds,89,17.93,103.96,76.23,0.0,0,2.89
383,Casas Grandes,0,MX,clear sky,18,30.37,-107.95,87.08,0.0,0,13.76
384,Launceston,100,AU,overcast clouds,100,-41.45,147.17,43.0,0.0,0,6.93
385,Sola,99,VU,overcast clouds,77,-13.88,167.55,79.77,0.0,0,19.06
386,Dzhebariki-Khaya,92,RU,overcast clouds,80,62.22,135.8,56.97,0.0,0,1.19
387,Bouna,98,CI,overcast clouds,76,9.27,-3.0,78.78,0.0,0,6.06
388,Morros,0,BR,clear sky,42,-9.45,-46.3,84.49,0.0,0,12.41
389,Torrington,100,US,overcast clouds,64,41.8,-73.12,82.99,0.0,0,1.01
390,Majene,86,ID,light rain,86,-3.54,118.97,78.19,0.46,0,10.04
391,Vanderhoof,100,CA,overcast clouds,40,54.02,-124.02,70.68,0.0,0,5.1
392,Yumen,42,CN,scattered clouds,20,40.28,97.2,71.71,0.0,0,4.32
393,Tilichiki,0,RU,clear sky,77,60.47,166.1,53.74,0.0,0,3.58
394,Baherden,0,TM,clear sky,14,38.44,57.43,87.4,0.0,0,8.3
395,Marsa Matruh,0,EG,clear sky,78,31.35,27.25,71.6,0.0,0,10.29
396,Itoman,20,JP,few clouds,94,26.12,127.67,82.4,0.0,0,16.11
397,Chumikan,100,RU,overcast clouds,94,54.72,135.31,38.26,0.0,0,4.21
398,Atasu,55,KZ,broken clouds,52,48.68,71.64,60.98,0.0,0,5.61
399,Kiruna,0,SE,clear sky,58,67.86,20.23,57.2,0.0,0,18.34
400,Chukhloma,1,RU,clear sky,72,58.75,42.68,55.67,0.0,0,5.06
401,Umm Kaddadah,6,SD,clear sky,45,13.6,26.69,86.97,0.0,0,21.36
402,Shimoda,100,JP,moderate rain,94,34.67,138.95,59.0,1.9,0,11.03
403,Vao,96,NC,overcast clouds,77,-22.67,167.48,71.74,0.0,0,15.9
404,Sitka,90,US,mist,93,57.05,-135.33,51.8,2.29,0,10.29
405,Pingliang,100,CN,overcast clouds,45,35.54,106.69,66.67,0.0,0,4.21
406,Lavrentiya,0,RU,clear sky,62,65.58,-171.0,49.41,0.0,0,2.71
407,Conde,90,BR,light rain,100,-7.26,-34.91,71.6,0.0,0,5.82
408,Necochea,1,AR,clear sky,85,-38.55,-58.74,55.99,0.0,0,7.0
409,Tumut,0,AU,clear sky,83,-35.3,148.22,43.48,0.0,0,3.04
410,Port Hedland,90,AU,overcast clouds,100,-20.32,118.57,62.6,0.0,0,4.7
411,Riverton,1,US,clear sky,45,40.52,-111.94,64.99,0.0,0,8.05
412,Buchanan,75,LR,broken clouds,88,5.88,-10.05,80.6,0.0,0,8.66
413,Mezen,100,RU,overcast clouds,64,65.85,44.24,58.06,0.0,0,5.57
414,Pangody,0,RU,clear sky,73,65.85,74.49,38.43,0.0,0,8.03
415,Mweka,42,CD,scattered clouds,35,-4.85,21.57,69.24,0.0,0,0.92
416,Nazarovo,100,RU,overcast clouds,95,56.01,90.39,56.07,0.0,0,7.18
417,Gashua,96,NG,overcast clouds,28,12.87,11.05,95.68,0.0,0,5.37
418,Ancud,75,CL,broken clouds,87,-41.87,-73.82,52.0,0.0,0,17.22
419,Verkhoshizhemye,0,RU,clear sky,73,58.01,49.1,50.68,0.0,0,2.48
420,Srednekolymsk,54,RU,broken clouds,36,67.45,153.68,75.63,0.0,0,1.77
421,Mocuba,36,MZ,scattered clouds,96,-16.84,36.99,63.7,0.0,0,5.66
422,Ontario,90,US,haze,72,34.06,-117.65,72.0,0.0,0,5.82
423,Riyadh,72,SA,dust,10,24.69,46.72,96.8,0.0,0,8.05
424,Okhotsk,98,RU,overcast clouds,93,59.38,143.3,44.89,0.0,0,4.61
425,Quatre Cocos,75,MU,broken clouds,68,-20.21,57.76,71.6,0.0,0,10.29
426,Eureka,29,US,scattered clouds,15,40.8,-124.16,71.01,0.0,0,3.0
427,Buta,100,CD,light rain,80,2.79,24.73,75.52,0.22,0,1.72
428,Rio Grande,75,BR,broken clouds,88,-32.03,-52.1,64.4,0.0,0,9.17
429,Fortuna,20,US,few clouds,77,40.6,-124.16,70.0,0.0,0,10.29
430,Sarangani,100,PH,overcast clouds,75,5.4,125.46,84.04,0.0,0,12.37
431,Along,100,IN,moderate rain,90,28.17,94.77,73.69,1.25,0,0.72
432,Mangai,75,CD,broken clouds,45,-4.05,19.53,70.59,0.0,0,0.94
433,Charthawal,92,IN,overcast clouds,50,29.55,77.58,89.24,0.0,0,11.99
434,Iralaya,75,HN,broken clouds,74,15.0,-83.23,86.0,0.0,0,9.17
435,Mosetse,0,BW,clear sky,79,-20.75,26.65,50.04,0.0,0,14.61
436,Gizo,1,SB,clear sky,77,-8.1,156.84,81.7,0.0,0,4.74
437,Santa Maria,75,BR,broken clouds,57,-29.68,-53.81,78.8,0.0,0,19.46
438,Rangapara,100,IN,light rain,94,26.82,92.65,76.5,0.93,0,4.05
439,Nanakuli,90,US,overcast clouds,83,21.39,-158.15,78.8,0.0,0,5.82
440,Ust-Tsilma,0,RU,clear sky,55,65.44,52.15,48.81,0.0,0,3.33
441,Altay,69,CN,broken clouds,47,47.87,88.12,56.84,0.0,0,4.54
442,Qiqihar,98,CN,overcast clouds,60,47.34,123.97,61.63,0.0,0,6.42
443,Ambilobe,92,MG,overcast clouds,69,-13.2,49.05,70.07,0.0,0,2.15
444,Christchurch,100,NZ,moderate rain,93,-43.53,172.63,44.01,1.02,0,14.99
445,Dundee,40,GB,scattered clouds,82,56.5,-2.97,57.99,0.0,0,10.29
446,Pimentel,20,PE,few clouds,60,-6.84,-79.93,73.4,0.0,0,17.22
447,Kargopol,100,RU,overcast clouds,72,61.51,38.95,62.74,0.0,0,5.77
448,Peniche,0,PT,clear sky,74,39.36,-9.38,68.0,0.0,0,14.0
449,Aksarka,61,RU,broken clouds,74,66.56,67.8,38.73,0.0,0,8.52
450,Sur,1,OM,clear sky,75,22.57,59.53,84.54,0.0,0,14.41
451,Salinopolis,96,BR,light rain,83,-0.61,-47.36,82.0,0.8,0,11.63
452,Pelotas,75,BR,broken clouds,88,-31.77,-52.34,64.4,0.0,0,9.17
453,Honningsvag,75,NO,light rain,75,70.98,25.97,44.6,0.0,0,12.75
454,Asfi,0,MA,clear sky,75,32.3,-9.24,69.24,0.0,0,20.8
455,Moerai,94,PF,overcast clouds,79,-22.43,-151.33,72.81,0.0,0,24.92
456,San Ramon,1,US,clear sky,13,37.78,-121.98,89.01,0.0,0,5.82
457,Sabattus,1,US,clear sky,29,44.12,-70.11,89.6,0.0,0,8.05
458,Tyazhinskiy,100,RU,overcast clouds,94,56.12,88.52,55.72,0.0,0,7.96
459,Ambikapur,98,IN,overcast clouds,70,23.12,83.2,78.98,0.0,0,5.41
460,Fairbanks,75,US,broken clouds,45,64.84,-147.72,71.01,0.0,0,3.85
461,Poya,100,NC,light rain,82,-21.35,165.15,69.35,0.19,0,4.72
462,Conceicao Da Barra,16,BR,few clouds,72,-18.59,-39.73,76.17,0.0,0,7.18
463,Jiazi,100,CN,overcast clouds,86,22.88,116.07,81.52,0.0,0,8.9
464,King City,0,US,clear sky,13,36.21,-121.13,89.01,0.0,0,3.0
465,Akyab,100,MM,moderate rain,84,20.15,92.9,81.9,3.36,0,9.93
466,Vestmanna,69,FO,broken clouds,100,62.16,-7.17,48.2,0.0,0,8.05
467,Waitati,85,NZ,overcast clouds,77,-45.75,170.57,44.01,0.0,0,8.01
468,Kavaratti,100,IN,light rain,80,10.57,72.64,84.22,0.15,0,15.86
469,Ust-Kulom,0,RU,clear sky,62,61.69,53.69,45.01,0.0,0,0.31
470,Paris,74,FR,broken clouds,63,48.85,2.35,68.0,0.0,0,11.41
471,Gresham,1,US,clear sky,56,45.5,-122.43,71.01,0.0,0,3.36
472,Atikokan,93,CA,light rain,54,48.76,-91.62,81.0,0.21,0,13.62
473,Pouembout,100,NC,overcast clouds,83,-21.13,164.9,69.01,0.0,0,4.99
474,Kitami,100,JP,overcast clouds,85,43.8,143.89,54.0,0.0,0,1.99
475,Westport,1,US,clear sky,73,41.14,-73.36,79.0,0.0,0,8.05
476,Pathein,100,MM,overcast clouds,88,16.78,94.73,78.44,0.0,0,5.21
477,Steinkjer,0,NO,clear sky,67,64.19,11.39,60.8,0.0,0,5.82
478,Jalu,0,LY,clear sky,21,29.03,21.55,86.04,0.0,0,11.88
479,Jaciara,86,BR,overcast clouds,42,-15.97,-54.97,86.25,0.0,0,7.2
480,Antigonish,0,CA,clear sky,34,45.62,-62.0,90.0,0.0,0,8.99
481,San Isidro,90,PE,overcast clouds,77,-12.12,-77.05,66.2,0.0,0,6.93
482,Torrijos,2,ES,clear sky,17,39.98,-4.28,82.99,0.0,0,10.0
483,Gobabis,0,NA,clear sky,47,-22.45,18.97,53.6,0.0,0,2.24
484,Zhanakorgan,0,KZ,clear sky,23,43.91,67.25,70.0,0.0,0,4.59
485,Alquizar,40,CU,scattered clouds,62,22.81,-82.58,87.8,0.0,0,3.36
486,Fort Nelson,40,CA,scattered clouds,60,58.81,-122.7,69.8,0.0,0,3.36
487,Alvand,0,IR,clear sky,57,36.32,49.17,60.39,0.0,0,4.94
488,Santiago De Cuba,40,CU,scattered clouds,74,20.02,-75.82,87.8,0.0,0,12.75
489,Bambous Virieux,75,MU,broken clouds,68,-20.34,57.76,71.6,0.0,0,10.29
490,Mirabad,0,AF,clear sky,12,30.44,61.84,89.19,0.0,0,15.95
491,Olafsvik,100,IS,overcast clouds,76,64.89,-23.71,49.33,0.0,0,15.95
492,Nokaneng,0,BW,clear sky,45,-19.67,22.27,56.07,0.0,0,8.68
493,Tabanan,20,ID,few clouds,94,-8.54,115.13,80.6,0.0,0,20.8
494,Cabedelo,90,BR,light rain,100,-6.98,-34.83,71.6,0.0,0,5.82
495,Palmer,40,US,scattered clouds,42,42.16,-72.33,84.99,0.0,0,6.93
496,Big Rapids,1,US,clear sky,34,43.7,-85.48,82.4,0.0,0,5.82
497,Turukhansk,1,RU,clear sky,91,65.82,87.98,42.42,0.0,0,12.97
498,Ossora,0,RU,clear sky,72,59.24,163.07,54.54,0.0,0,0.98
499,Benguela,0,AO,clear sky,79,-12.58,13.41,71.49,0.0,0,3.44
500,Jaora,100,IN,overcast clouds,70,23.63,75.13,83.17,0.0,0,22.3
501,Northam,100,GB,moderate rain,100,51.03,-4.22,57.99,1.4,0,7.0
502,Moree,0,AU,clear sky,87,-29.47,149.85,48.2,0.0,0,10.29
503,Svetlyy,75,RU,light intensity shower rain,78,54.67,20.13,73.4,0.0,0,6.71
504,Hay River,20,CA,few clouds,49,60.82,-115.8,69.8,0.0,0,17.22
505,Batemans Bay,0,AU,clear sky,100,-35.72,150.18,37.0,0.0,0,5.23
506,San Jose,40,US,scattered clouds,19,37.34,-121.89,88.0,0.0,0,8.05
507,Mecca,100,SA,overcast clouds,32,21.43,39.83,89.71,0.0,0,6.11
508,Dingle,100,PH,light rain,92,11.0,122.67,76.26,0.85,0,7.18
509,Mehamn,75,NO,broken clouds,81,71.04,27.85,46.4,0.0,0,24.16
510,Srivardhan,100,IN,light rain,84,18.03,73.02,81.45,0.55,0,12.19
511,Vermillion,90,US,thunderstorm,93,42.78,-96.93,80.01,0.0,0,17.22
512,Nouadhibou,0,MR,dust,73,20.93,-17.03,73.4,0.0,0,19.46
513,Hovd,99,MN,overcast clouds,30,48.01,91.64,62.94,0.0,0,6.71
514,Sapa,100,PH,light rain,75,5.15,120.32,82.69,0.11,0,3.51
515,Hoquiam,1,US,clear sky,72,46.98,-123.89,69.01,0.0,0,12.75
516,Raudeberg,1,NO,clear sky,89,61.99,5.14,63.0,0.0,0,12.68
517,Virginia Beach,75,US,broken clouds,65,36.85,-75.98,79.0,0.0,0,12.75
518,Kutum,39,SD,scattered clouds,34,14.2,24.67,80.58,0.0,0,7.18
519,Dandong,99,CN,overcast clouds,93,40.13,124.39,63.84,0.0,0,3.11
520,La Ronge,75,CA,broken clouds,41,55.1,-105.28,57.2,0.0,0,11.41
521,Ponta Delgada,75,PT,broken clouds,82,37.73,-25.67,64.4,0.0,0,12.75
522,Egvekinot,100,RU,overcast clouds,38,66.32,-179.17,56.44,0.0,0,1.79
523,Tharad,0,IN,clear sky,51,24.4,71.63,95.02,0.0,0,9.62
524,Lata,0,PT,clear sky,65,40.16,-8.33,66.0,0.0,0,5.99
525,Lannion,90,FR,overcast clouds,93,48.75,-3.42,59.0,0.0,0,14.99
526,Cheremukhovo,0,RU,clear sky,65,60.35,59.99,42.33,0.0,0,4.79
527,Huilong,45,CN,scattered clouds,91,31.81,121.66,75.0,0.0,0,1.99
528,Adre,100,TD,overcast clouds,48,13.47,22.2,80.42,0.0,0,10.69
529,Sijunjung,73,ID,light rain,92,-0.69,100.95,71.28,0.34,0,1.36
530,Kabinda,17,CD,few clouds,43,-6.13,24.48,69.26,0.0,0,2.68
531,Conyers,75,US,broken clouds,51,33.67,-84.02,82.0,0.0,0,3.36
532,Port Augusta,0,AU,clear sky,50,-32.5,137.77,55.4,0.0,0,17.22
533,Price,1,US,clear sky,20,39.6,-110.81,66.2,0.0,0,5.12
534,Jiangyou,97,CN,overcast clouds,74,31.77,104.72,73.51,0.0,0,2.89
535,Sao Joao Da Barra,40,BR,scattered clouds,57,-21.64,-41.05,78.8,0.0,0,11.41
536,Namibe,0,AO,clear sky,69,-15.2,12.15,71.49,0.0,0,2.91
537,Sistranda,20,NO,few clouds,67,63.73,8.83,60.8,0.0,0,5.82
538,Beloha,20,MG,few clouds,82,-25.17,45.05,63.77,0.0,0,14.25
539,Yambio,100,SS,light rain,92,4.57,28.4,70.48,0.84,0,0.74
540,Moultrie,1,US,clear sky,45,31.18,-83.79,86.0,0.0,0,2.53
541,Jalostotitlan,5,MX,clear sky,26,21.2,-102.47,82.4,0.0,0,8.05
542,Nelson Bay,75,AU,broken clouds,100,-32.72,152.15,48.99,0.0,0,4.7
543,Smolenka,4,RU,clear sky,81,52.14,113.5,44.6,0.0,0,2.24
544,Xuanzhou,11,CN,few clouds,93,30.95,118.76,66.15,0.0,0,4.99
545,Pecos,1,US,clear sky,8,31.42,-103.49,102.2,0.0,0,14.99
546,Nueve De Julio,100,AR,overcast clouds,48,-35.44,-60.88,66.0,0.0,0,4.0
547,Bereda,7,ES,clear sky,79,43.27,-7.54,63.0,0.0,0,7.0
548,Baripada,100,IN,overcast clouds,72,21.93,86.72,83.59,0.0,0,5.97
549,Tongren,94,CN,overcast clouds,89,27.72,109.19,71.46,0.0,0,1.88
550,Oksfjord,75,NO,shower rain and drizzle,100,70.24,22.35,48.2,0.0,0,20.8
551,Pringsewu,100,ID,overcast clouds,90,-5.36,104.97,74.3,0.0,0,1.25
552,Baturaja,100,ID,overcast clouds,93,-4.13,104.17,73.72,0.0,0,2.48
553,Uray,89,RU,overcast clouds,58,60.12,64.78,45.54,0.0,0,4.5
554,Staritsa,0,RU,clear sky,81,56.51,34.94,68.65,0.0,0,0.47
555,Sampit,100,ID,overcast clouds,97,-2.53,112.95,73.89,0.0,0,1.99
556,Piracuruca,20,BR,few clouds,58,-3.93,-41.71,86.95,0.0,0,3.42
557,Gore,1,NZ,clear sky,83,-46.1,168.94,39.0,0.0,0,3.0
558,Qandala,39,SO,scattered clouds,51,11.47,49.87,91.2,0.0,0,3.94
559,Beboto,100,TD,light rain,78,8.27,16.94,75.07,0.83,0,4.61
560,Swan River,100,CA,light rain,92,52.11,-101.27,46.71,0.3,0,6.42
561,Besancon,0,FR,clear sky,100,47.25,6.02,57.99,0.0,0,1.1
562,Port Keats,1,AU,clear sky,57,-14.25,129.55,69.62,0.0,0,6.31
563,Mangrol,13,IN,few clouds,79,21.12,70.12,85.03,0.0,0,15.95
564,Zapolyarnyy,82,RU,broken clouds,62,69.42,30.81,53.6,0.0,0,6.93
